[
  {
    "id": "2",
    "name": "Pasar Mini Bestari",
    "address": "45 Lorong Indah",
    "outstandingBalance": 0,
    "lat": 3.073,
    "lon": 101.518,
    "phone": "0135469885"
  },
  {
    "id": "3",
    "name": "Restoran Maju",
    "address": "88 Taman Raya",
    "outstandingBalance": 500.5,
    "lat": 3.055,
    "lon": 101.7
  },
  {
    "outstandingBalance": 0,
    "name": "Test Store 1 Updated",
    "address": "123 Test St",
    "sales_id": "u2",
    "id": "1766634065508"
  },
  {
    "name": "Fancoklow",
    "address": "Lok kawi ",
    "outstandingBalance": 2001,
    "sales_id": "u2",
    "lat": 2,
    "lon": 3,
    "id": "1766634932613"
  },
  {
    "name": "cdm enterprices",
    "address": "kampung inanam laut",
    "outstandingBalance": 0,
    "sales_id": "",
    "id": "1766638824938"
  },
  {
    "name": "hsaoa",
    "address": "ad",
    "outstandingBalance": 200,
    "sales_id": "u2",
    "id": "1766640533034"
  },
  {
    "name": "enterprices",
    "address": "lokkawi",
    "outstandingBalance": 2000,
    "sales_id": "u2",
    "lat": 3,
    "id": "1766641130009"
  },
  {
    "id": "c1768103214125",
    "name": "abx",
    "phone": "0123654789",
    "location": "",
    "address": "Registered via App"
  },
  {
    "id": "c1768108694078",
    "name": "asd",
    "phone": "0132654566",
    "location": "",
    "address": "Registered via App"
  },
  {
    "id": "c1768110060302",
    "name": "54684",
    "phone": "3215156561",
    "location": "",
    "address": "Registered via App"
  },
  {
    "id": "c1768111046878",
    "name": "+6+65",
    "phone": "98444984",
    "location": "",
    "address": "Registered via App"
  },
  {
    "id": "c1768276511857",
    "name": "Restoran Era",
    "phone": "01621212",
    "location": "",
    "address": "Registered via App"
  },
  {
    "name": "lorong maju enterpices",
    "phone": "01212211121",
    "address": "kk",
    "id": "c1768278023167"
  },
  {
    "name": "salam enterprise",
    "phone": "0145158954",
    "address": "kgf sampouan",
    "id": "c1768464431020"
  }
]